"ID","LOCATION_NAME","COUNTRY_ID","LATITUDE","LONGITUDE"
1,"Odessa",15,46.485722,30.743444
2,"Kiev",15,50.45,30.523333
3,"Chernivtsi",15,48.3,25.933333
4,"Malmo",13,55.605833,13.035833
5,"Munich",5,48.133333,11.566667
6,"Madrid",12,40.383333,-3.716667
7,"Barcelona",12,41.383333,2.183333
8,"Marseille",4,43.2964,5.37
9,"Rome",8,41.9,12.5
10,"Carara",8,44.079167,10.1
11,"Boulogne-sur-Mer",4,50.7264,1.6147
